[
    {
        "name": "企鵝麵包坊 - 中環分店",
        "address": "中環中心123號",
        "phone": "(852) 1234-5678",
        "business_hours": "週一至週日 7:00 AM - 8:00 PM"
    },
    {
        "name": "企鵝麵包坊 - 旺角分店",
        "address": "旺角廣場456號",
        "phone": "(852) 8765-4321",
        "business_hours": "週一至週六 6:30 AM - 9:00 PM，週日 8:00 AM - 6:00 PM"
    },
    {
        "name": "企鵝麵包坊 - 尖沙咀分店",
        "address": "尖沙咀東1234號",
        "phone": "(852) 9876-5432",
        "business_hours": "週一至週六 7:30 AM - 7:00 PM，週日 9:00 AM - 5:00 PM"
    },
    {
        "name": "企鵝麵包坊 - 荃灣分店",
        "address": "荃灣廣場789號",
        "phone": "(852) 2345-6789",
        "business_hours": "週一至週五 8:00 AM - 6:30 PM，週末 9:00 AM - 4:00 PM"
    },
    {
        "name": "企鵝麵包坊 - 觀塘分店",
        "address": "觀塘中心101號",
        "phone": "(852) 8765-1234",
        "business_hours": "週一至週六 7:00 AM - 8:30 PM，週日 10:00 AM - 5:00 PM"
    },
    {
        "name": "企鵝麵包坊 - 葵芳分店",
        "address": "葵芳廣場567號",
        "phone": "(852) 3456-7890",
        "business_hours": "週一至週日 6:30 AM - 9:00 PM"
    },
    {
        "name": "企鵝麵包坊 - 沙田分店",
        "address": "沙田中心876號",
        "phone": "(852) 2345-6789",
        "business_hours": "週一至週六 7:30 AM - 7:00 PM，週日 8:00 AM - 6:00 PM"
    },
    {
        "name": "企鵝麵包坊 - 屯門分店",
        "address": "屯門廣場234號",
        "phone": "(852) 5678-9012",
        "business_hours": "週一至週五 8:00 AM - 6:30 PM，週末 9:00 AM - 4:00 PM"
    },
    {
        "name": "企鵝麵包坊 - 荔灣分店",
        "address": "荔灣廣場345號",
        "phone": "(852) 7890-1234",
        "business_hours": "週一至週六 7:00 AM - 8:30 PM，週日 10:00 AM - 5:00 PM"
    },
    {
        "name": "企鵝麵包坊 - 西環分店",
        "address": "西環中心678號",
        "phone": "(852) 8901-2345",
        "business_hours": "週一至週五 6:30 AM - 9:00 PM，週末 8:00 AM - 6:00 PM"
    }
]